# https://www.gps-coordinates.net/
---
- lat: 53.904539
  lng: 27.561524
  city: Minsk
- lat: 54.687156
  lng: 25.279651
  city: Vilnius
- lat: 50.937531
  lng: 6.960279
  city: Cologne
- lat: 54.898521
  lng: 23.903597
  city: Kaunas
- lat: 50.4501
  lng: 30.5234
  city: Kiev
- lat: 46.482526
  lng: 30.72331
  city: Odessa
- lat: 59.436961
  lng: 24.753575
  city: Tallinn
- lat: 52.229676
  lng: 21.012229
  city: Warsaw
- lat: 50.075538
  lng: 14.4378
  city: Prague
- lat: 59.329323
  lng: 18.068581
  city: Stockholm
- lat: 62.917853
  lng: 7.440089
  city: Eide
- lat: 62.504633
  lng: 6.63173
  city: Skodje
- lat: 62.472228
  lng: 6.149482
  city: Alesund
- lat: 59.913869
  lng: 10.752245
  city: Oslo
- lat: 59.665346
  lng: 5.937195
  city: Etne
- lat: 59.778834
  lng: 5.500228
  city: Stord
- lat: 60.067604
  lng: 6.547327
  city: Odda
- lat: 58.159912
  lng: 8.018206
  city: Kristiansand
- lat: 53.079296
  lng: 8.801694
  city: Bremen
- lat: 25.204849
  lng: 55.270783
  city: Dubai
- lat: 25.346255
  lng: 55.420932
  city: Sharjah
- lat: 25.411076
  lng: 56.248228
  city: Fujairah
- lat: 59.93428
  lng: 30.335099
  city: Saint Petersburg
- lat: 57.816699
  lng: 28.334473
  city: Pskov
- lat: 24.453884
  lng: 54.377344
  city: Abu Dabi
- lat: 52.370216
  lng: 4.895168
  city: Amsterdam
- lat: 41.385064
  lng: 2.173403
  city: Barcelona
- lat: 41.118883
  lng: 1.244491
  city: Terragona
- lat: 30.04442
  lng: 31.235712
  city: Cairo
- lat: 27.257896
  lng: 33.811607
  city: Hurghada
- lat: 25.719291
  lng: 32.602861
  city: Luxor
- lat: 56.949649
  lng: 24.105186
  city: Riga
- lat: 48.856614
  lng: 2.352222
  city: Paris
- lat: 40.43759
  lng: 22.917796
  city: Thermaikos
- lat: 40.640063
  lng: 22.944419
  city: Thessaloniki
- lat: 39.665029
  lng: 20.853747
  city: Ioannina
- lat: 39.770247
  lng: 21.182861
  city: Metsovo
- lat: 48.878462
  lng: 2.765796
  city: Chessy
- lat: 28.391353
  lng: -16.523874
  city: La Oratava
- lat: 28.411413
  lng: -16.544961
  city: Puerto de la Cruz
- lat: 28.048906
  lng: -16.711598
  city: Los Cristianos
- lat: 28.029745
  lng: -16.593029
  city: Los Ambrigos
- lat: 39.904200
  lng: 116.407396
  city: Beijing
- lat: 31.230390
  lng: 121.473702
  city: Shanghai
- lat: 29.117096
  lng: 110.479191
  city: Zhangjiajie
- lat: 18.582010
  lng: -68.405473
  city: Punta Cana
- lat: 18.193180
  lng: -68.777351
  city: Catuano
- lat: 18.433864
  lng: -68.965882
  city: La Romana
- lat: 19.053356
  lng: -69.389067
  city: Sabana de la Mar
- lat: 41.157944
  lng: -8.629105
  city: Porto
- lat: 38.722252
  lng: -9.139337
  city: Lissbon
- lat: 32.666933
  lng: -16.924055
  city: Funchal
- lat: 38.802913
  lng: -9.381649
  city: Sintra
- lat: 49.839683
  lng: 24.029717
  city: Lviv
- lat: 64.126521
  lng: -21.817439
  city: Reykjavik
- lat: 63.933461
  lng: -21.001383
  city: Selfoss
- lat: 63.418631
  lng: -19.006048
  city: Vik
- lat: 64.833518
  lng: -13.873179
  city: Stöðvarfjörður
- lat: 65.642848
  lng: -16.910133
  city: Reykjahlíð
- lat: 65.688492
  lng: -18.126169
  city: Akureyri
- lat: 23.113592
  lng: -82.366596
  city: Havana
- lat: 22.618813
  lng: -83.706629
  city: Vinales
- lat: 22.337906
  lng: -84.380489
  city: Arroyos De Mantua
- lat: 22.041565
  lng: -84.271334
  city: La Fe
- lat: 21.819057
  lng: -84.495760
  city: Maria de Gorda
- lat: 21.924079
  lng: -84.484195
  city: La Bajada
- lat: 23.179858
  lng: -81.188529
  city: Varadero
- lat: 60.391262
  lng: 5.322054
  city: Bergen
- lat: 60.404301
  lng: 5.192810
  city: Strusshamn
- lat: 60.461872
  lng: 5.089330
  city: Askøy
- lat: 59.918442
  lng: 5.319200
  city: Fitjar
- lat: 59.602330
  lng: 5.211440
  city: Langevåg
- lat: 59.060848
  lng: 5.400810
  city: Kvitsøy
- lat: 59.054562
  lng: 6.647307
  city: Lysefjorden
- lat: 58.905070
  lng: 6.104950
  city: Forsand
- lat: 59.064880
  lng: 5.922580
  city: Tau
- lat: 59.307110
  lng: 4.887400
  city: Utsira
- lat: 58.969975
  lng: 5.733107
  city: Stavanger
- lat: 58.969975
  lng: 5.733107
  city: Stavanger
- lat: 51.209419
  lng: 3.225200
  city: Bruges
- lat: 51.053822
  lng: 3.722270
  city: Ghent
- lat: 51.219448
  lng: 4.402464
  city: Antwerp
- lat: 51.219448
  lng: 4.402464
  city: Antwerp
- lat: 50.850346
  lng: 4.351721
  city: Brussels
- lat: 60.169857
  lng: 24.938379
  city: Helsinki
- lat: 51.107883
  lng: 17.038538
  city: Wroclaw
- lat: 51.050407
  lng: 13.737262
  city: Dresden
- lat: 49.452103
  lng: 11.076665
  city: Nuremberg
- lat: 47.570923
  lng: 10.697709
  city: Füssen
- lat: 48.135124
  lng: 11.581981
  city: Munich
- lat: 47.767638
  lng: 13.364353
  city: St Gilgen
- lat: 47.557281
  lng: 13.646960
  city: Hallstatt
- lat: 50.264893
  lng: 19.023781
  city: Katowice
- lat: 51.227741
  lng: 6.773456
  city: Düsseldorf
- lat: 52.520008
  lng: 13.404954
  city: Berlin
- lat: 50.232040
  lng: 12.870990
  city: Karlovy Vary
- lat: 51.507351
  lng: -0.127758
  city: London
- lat: 50.110924
  lng: 8.682127
  city: Frankfurt
- lat: 49.380500
  lng: 10.178530
  city: Rothenburg ob der Tauber
- lat: 55.755825
  lng: 37.617298
  city: Moscow
- lat: 41.715137
  lng: 44.827095
  city: Tbilisi
- lat: 43.033463
  lng: 42.689480
  city: Mestia
- lat: 42.917797
  lng: 43.015672
  city: Ushguli
- lat: 42.657955
  lng: 44.640942
  city: Stepantsminda
- lat: 41.916667
  lng: 45.483333
  city: Telavi
- lat: 52.433333
  lng: 4.833333
  city: Zaandam
- lat: 53.349804
  lng: -6.260310
  city: Dublin
- lat: 54.356030
  lng: 18.646120
  city: Gdansk
- lat: 54.441582
  lng: 18.560097
  city: Sopot
- lat: 54.518890
  lng: 18.530540
  city: Gdynia
- lat: 50.828
  lng: -0.140
  city: Brighton
- lat: 53.408371
  lng: -2.991573
  city: Liverpool
- lat: 53.480759
  lng: -2.242631
  city: Manchester
- lat: 55.953251
  lng: -3.188267
  city: Edinburgh
- lat: 57.412
  lng: -6.192
  city: Portree
- lat: 36.536
  lng: 30.441
  city: Mount Tahtali
- lat: 36.896
  lng: 30.713
  city: Antalya
- lat: 41.008
  lng: 28.978
  city: Istanbul
- lat: 54.941
  lng: 26.403
  city: Grumbinenty
- lat: 54.773
  lng: 28.377
  city: Nivki
- lat: 54.856
  lng: 29.159
  city: Chashniki
- lat: 51.003
  lng: -0.937
  city: South Downs National Park
- lat: 51.481
  lng: -3.179
  city: Cardiff
- lat: 50.738
  lng: 0.249
  city: Beachy Head
- lat: 50.766
  lng: 0.278
  city: Eastbourne
- lat: 50.778
  lng: 0.110
  city: Seaford
- lat: 50.796
  lng: 0.007
  city: Peacehaven
- lat: 50.220
  lng: -5.385
  city: Gwithian
- lat: 50.215
  lng: -5.48
  city: St. Ives
- lat: 50.187
  lng: -5.418
  city: Hayle
- lat: 50.175
  lng: -5.619
  city: Bosigran
- lat: 50.124
  lng: -5.68
  city: St Just
- lat: 50.261
  lng: -5.29
  city: Portreath
- lat: 50.295
  lng: -5.201
  city: St. Agnes
- lat: 50.071
  lng: -5.7
  city: Sennen
- lat: 50.128
  lng: -5.466
  city: Marazion
- lat: 50.726
  lng: -3.527
  city: Exeter
- lat: 54.065
  lng: 27.736
  city: Raubichi
- lat: 53.413
  lng: 24.543
  city: Masty
- lat: 52.571
  lng: 23.804
  city: Bielaviežskaja pušča
- lat: 50.783
  lng: -0.892
  city: West Wittering
- lat: 51.125
  lng: 1.313
  city: Dover
- lat: 51.388
  lng: 1.382
  city: Margate
- lat: 51.359
  lng: 1.441
  city: Broadstairs
- lat: 51.752
  lng: -1.258
  city: Oxford
- lat: 54.5
  lng: -3.167
  city: Lake District National Park
- lat: 54.601
  lng: -3.138
  city: Keswick
- lat: 54.579
  lng: -3.147
  city: Derwentwater
- lat: 54.541
  lng: -3.276
  city: Buttermere
- lat: 54.398
  lng: -3.27
  city: Boot
- lat: 51.34
  lng: 0.73
  city: Sittingbourne
- lat: 51.347
  lng: 0.817
  city: Conyer
- lat: 51.314
  lng: 0.891
  city: Faversham
- lat: 51.361
  lng: 1.024
  city: Whitstable
- lat: 37.984
  lng: 23.728
  city: Athens
- lat: 37.947
  lng: 23.637
  city: Piraeus
- lat: 41.893
  lng: 12.483
  city: Rome
- lat: 41.754
  lng: 12.286
  city: Ostia Antica
- lat: 43.77
  lng: 11.256
  city: Florence
- lat: 45.464
  lng: 9.19
  city: Milan
- lat: 46.01
  lng: 9.283
  city: Varenna
- lat: 46.034
  lng: 10.006
  city: Valbondione
- lat: 46.361
  lng: 11.915
  city: Canale d'Agordo
- lat: 45.437
  lng: 12.335
  city: Venice
- lat: 44.494
  lng: 11.343
  city: Bologna
- lat: 43.716
  lng: 10.402
  city: Pisa
- lat: 44.239
  lng: 9.49
  city: Moneglia
- lat: 44.238
  lng: 9.691
  city: La Spezia
