# https://www.latlong.net
---
- lat: 53.904539
  lng: 27.561524
  city: Minsk
- lat: 54.687156
  lng: 25.279651
  city: Vilnius
- lat: 50.937531
  lng: 6.960279
  city: Cologne
- lat: 54.898521
  lng: 23.903597
  city: Kaunas
- lat: 50.4501
  lng: 30.5234
  city: Kiev
- lat: 46.482526
  lng: 30.72331
  city: Odessa
- lat: 59.436961
  lng: 24.753575
  city: Tallinn
- lat: 52.229676
  lng: 21.012229
  city: Warsaw
- lat: 50.075538
  lng: 14.4378
  city: Prague
- lat: 59.329323
  lng: 18.068581
  city: Stockholm
- lat: 62.917853
  lng: 7.440089
  city: Eide
- lat: 62.504633
  lng: 6.63173
  city: Skodje
- lat: 62.472228
  lng: 6.149482
  city: Alesund
- lat: 59.913869
  lng: 10.752245
  city: Oslo
- lat: 59.665346
  lng: 5.937195
  city: Etne
- lat: 59.778834
  lng: 5.500228
  city: Stord
- lat: 60.067604
  lng: 6.547327
  city: Odda
- lat: 58.159912
  lng: 8.018206
  city: Kristiansand
- lat: 53.079296
  lng: 8.801694
  city: Bremen
- lat: 25.204849
  lng: 55.270783
  city: Dubai
- lat: 25.346255
  lng: 55.420932
  city: Sharjah
- lat: 25.411076
  lng: 56.248228
  city: Fujairah
- lat: 59.93428
  lng: 30.335099
  city: Saint Petersburg
- lat: 57.816699
  lng: 28.334473
  city: Pskov
- lat: 24.453884
  lng: 54.377344
  city: Abu Dabi
- lat: 52.370216
  lng: 4.895168
  city: Amsterdam
- lat: 41.385064
  lng: 2.173403
  city: Barcelona
- lat: 41.118883
  lng: 1.244491
  city: Terragona
- lat: 30.04442
  lng: 31.235712
  city: Cairo
- lat: 27.257896
  lng: 33.811607
  city: Hurghada
- lat: 25.719291
  lng: 32.602861
  city: Luxor
- lat: 56.949649
  lng: 24.105186
  city: Riga
- lat: 48.856614
  lng: 2.352222
  city: Paris
- lat: 40.43759
  lng: 22.917796
  city: Thermaikos
- lat: 40.640063
  lng: 22.944419
  city: Thessaloniki
- lat: 39.665029
  lng: 20.853747
  city: Ioannina
- lat: 39.770247
  lng: 21.182861
  city: Metsovo
- lat: 48.878462
  lng: 2.765796
  city: Chessy
- lat: 28.391353
  lng: -16.523874
  city: La Oratava
- lat: 28.411413
  lng: -16.544961
  city: Puerto de la Cruz
- lat: 28.048906
  lng: -16.711598
  city: Los Cristianos
- lat: 28.029745
  lng: -16.593029
  city: Los Ambrigos
- lat: 39.904200
  lng: 116.407396
  city: Beijing
- lat: 31.230390
  lng: 121.473702
  city: Shanghai
- lat: 29.117096
  lng: 110.479191
  city: Zhangjiajie
- lat: 18.582010
  lng: -68.405473
  city: Punta Cana
- lat: 18.193180
  lng: -68.777351
  city: Catuano
- lat: 18.433864
  lng: -68.965882
  city: La Romana
- lat: 19.053356
  lng: -69.389067
  city: Sabana de la Mar
- lat: 41.157944
  lng: -8.629105
  city: Porto
- lat: 38.722252
  lng: -9.139337
  city: Lissbon
- lat: 32.666933
  lng: -16.924055
  city: Funchal
- lat: 38.802913
  lng: -9.381649
  city: Sintra
- lat: 49.839683
  lng: 24.029717
  city: Lviv
- lat: 64.126521
  lng: -21.817439
  city: Reykjavik
- lat: 63.933461
  lng: -21.001383
  city: Selfoss
- lat: 63.418631
  lng: -19.006048
  city: Vik
- lat: 64.833518
  lng: -13.873179
  city: Stöðvarfjörður
- lat: 65.642848
  lng: -16.910133
  city: Reykjahlíð
- lat: 65.688492
  lng: -18.126169
  city: Akureyri
- lat: 23.113592
  lng: -82.366596
  city: Havana
- lat: 22.618813
  lng: -83.706629
  city: Vinales
- lat: 22.337906
  lng: -84.380489
  city: Arroyos De Mantua
- lat: 22.041565
  lng: -84.271334
  city: La Fe
- lat: 21.819057
  lng: -84.495760
  city: Maria de Gorda
- lat: 21.924079
  lng: -84.484195
  city: La Bajada
- lat: 23.179858
  lng: -81.188529
  city: Varadero
- lat: 60.391262
  lng: 5.322054
  city: Bergen
- lat: 60.404301
  lng: 5.192810
  city: Strusshamn
- lat: 60.461872
  lng: 5.089330
  city: Askøy
- lat: 59.918442
  lng: 5.319200
  city: Fitjar
- lat: 59.602330
  lng: 5.211440
  city: Langevåg
- lat: 59.060848
  lng: 5.400810
  city: Kvitsøy
- lat: 59.054562
  lng: 6.647307
  city: Lysefjorden
- lat: 58.905070
  lng: 6.104950
  city: Forsand
- lat: 59.064880
  lng: 5.922580
  city: Tau
- lat: 59.307110
  lng: 4.887400
  city: Utsira
- lat: 58.969975
  lng: 5.733107
  city: Stavanger
- lat: 58.969975
  lng: 5.733107
  city: Stavanger
- lat: 51.209419
  lng: 3.225200
  city: Bruges
- lat: 51.053822
  lng: 3.722270
  city: Ghent
- lat: 51.219448
  lng: 4.402464
  city: Antwerp
- lat: 51.219448
  lng: 4.402464
  city: Antwerp
- lat: 50.850346
  lng: 4.351721
  city: Brussels
- lat: 60.169857
  lng: 24.938379
  city: Helsinki
- lat: 51.107883
  lng: 17.038538
  city: Wroclaw
- lat: 51.050407
  lng: 13.737262
  city: Dresden
- lat: 49.452103
  lng: 11.076665
  city: Nuremberg
- lat: 47.570923
  lng: 10.697709
  city: Füssen
- lat: 48.135124
  lng: 11.581981
  city: Munich
- lat: 47.767638
  lng: 13.364353
  city: St Gilgen
- lat: 47.557281
  lng: 13.646960
  city: Hallstatt
- lat: 50.264893
  lng: 19.023781
  city: Katowice
- lat: 51.227741
  lng: 6.773456
  city: Düsseldorf
- lat: 52.520008
  lng: 13.404954
  city: Berlin
- lat: 50.232040
  lng: 12.870990
  city: Karlovy Vary
- lat: 51.507351
  lng: -0.127758
  city: London
- lat: 50.110924
  lng: 8.682127
  city: Frankfurt
- lat: 49.380500
  lng: 10.178530
  city: Rothenburg ob der Tauber
- lat: 55.755825
  lng: 37.617298
  city: Moscow
- lat: 41.715137
  lng: 44.827095
  city: Tbilisi
- lat: 43.033463
  lng: 42.689480
  city: Mestia
- lat: 42.917797
  lng: 43.015672
  city: Ushguli
- lat: 42.657955
  lng: 44.640942
  city: Stepantsminda
- lat: 41.916667
  lng: 45.483333
  city: Telavi
- lat: 52.433333
  lng: 4.833333
  city: Zaandam
